[
  {
    "id": "REQ00",
    "name": "Valencia flood watch (ES)",
    "lat_deg": 39.47,
    "lon_deg": -0.38,
    "category": "urgent",
    "priority": 10
  },
  {
    "id": "REQ01",
    "name": "Barcelona flood watch (ES)",
    "lat_deg": 41.39,
    "lon_deg": 2.17,
    "category": "urgent",
    "priority": 9
  },
  {
    "id": "REQ02",
    "name": "Marseille flood watch (FR)",
    "lat_deg": 43.3,
    "lon_deg": 5.37,
    "category": "urgent",
    "priority": 9
  },
  {
    "id": "REQ03",
    "name": "Rome flood watch (IT)",
    "lat_deg": 41.9,
    "lon_deg": 12.5,
    "category": "urgent",
    "priority": 8
  },
  {
    "id": "REQ04",
    "name": "Naples wildfire watch (IT)",
    "lat_deg": 40.85,
    "lon_deg": 14.27,
    "category": "urgent",
    "priority": 8
  },
  {
    "id": "REQ05",
    "name": "Athens wildfire watch (GR)",
    "lat_deg": 37.98,
    "lon_deg": 23.73,
    "category": "urgent",
    "priority": 10
  },
  {
    "id": "REQ06",
    "name": "Los Angeles wildfire (US)",
    "lat_deg": 34.05,
    "lon_deg": -118.24,
    "category": "urgent",
    "priority": 9
  },
  {
    "id": "REQ07",
    "name": "San Francisco wildfire (US)",
    "lat_deg": 37.77,
    "lon_deg": -122.42,
    "category": "urgent",
    "priority": 9
  },
  {
    "id": "REQ08",
    "name": "Sacramento flood watch (US)",
    "lat_deg": 38.58,
    "lon_deg": -121.49,
    "category": "urgent",
    "priority": 8
  },
  {
    "id": "REQ09",
    "name": "Las Vegas flood watch (US)",
    "lat_deg": 36.17,
    "lon_deg": -115.14,
    "category": "urgent",
    "priority": 7
  },
  {
    "id": "REQ10",
    "name": "Chiang Mai major fire (TH)",
    "lat_deg": 18.79,
    "lon_deg": 98.98,
    "category": "urgent",
    "priority": 10
  },
  {
    "id": "REQ11",
    "name": "Bangkok flood watch (TH)",
    "lat_deg": 13.76,
    "lon_deg": 100.5,
    "category": "urgent",
    "priority": 8
  },
  {
    "id": "REQ12",
    "name": "Hanoi flood watch (VN)",
    "lat_deg": 21.03,
    "lon_deg": 105.85,
    "category": "urgent",
    "priority": 7
  },
  {
    "id": "REQ13",
    "name": "London air-quality (UK)",
    "lat_deg": 51.51,
    "lon_deg": -0.13,
    "category": "routine",
    "priority": 3
  },
  {
    "id": "REQ14",
    "name": "Lagos coastal erosion (NG)",
    "lat_deg": 6.52,
    "lon_deg": 3.38,
    "category": "routine",
    "priority": 4
  },
  {
    "id": "REQ15",
    "name": "Mumbai monsoon survey (IN)",
    "lat_deg": 19.08,
    "lon_deg": 72.88,
    "category": "routine",
    "priority": 4
  },
  {
    "id": "REQ16",
    "name": "Nairobi agriculture (KE)",
    "lat_deg": -1.29,
    "lon_deg": 36.82,
    "category": "routine",
    "priority": 4
  },
  {
    "id": "REQ17",
    "name": "Cape Town reservoirs (ZA)",
    "lat_deg": -33.92,
    "lon_deg": 18.42,
    "category": "routine",
    "priority": 4
  },
  {
    "id": "REQ18",
    "name": "Buenos Aires delta (AR)",
    "lat_deg": -34.6,
    "lon_deg": -58.38,
    "category": "routine",
    "priority": 3
  },
  {
    "id": "REQ19",
    "name": "Tokyo bay monitoring (JP)",
    "lat_deg": 35.68,
    "lon_deg": 139.65,
    "category": "routine",
    "priority": 4
  },
  {
    "id": "REQ20",
    "name": "Santiago snowpack (CL)",
    "lat_deg": -33.45,
    "lon_deg": -70.67,
    "category": "routine",
    "priority": 3
  }
]